[
  {
    "imgSrc": "/assets/images/recent-exhibition-thumbnail.jpg",
    "title": "‘SWEET’ 진 영",
    "state": "전시 중",
    "genre": "Painting",
    "city": "서울",
    "creator": {
      "name": "희재",
      "iconSrc": "https://graph.facebook.com/781692498598459/picture"
    },
    "schedule": "Nov 7-Dec 10, 2016",
    "location": "Hyundai Gallery"
  },
  {
    "imgSrc": "/assets/images/recent-exhibition-thumbnail.jpg",
    "title": "‘SWEET’ 진 영",
    "state": "전시 중",
    "genre": "Painting",
    "city": "제주",
    "creator": {
      "name": "희재",
      "iconSrc": "https://graph.facebook.com/781692498598459/picture"
    },
    "schedule": "Nov 7-Dec 10, 2016",
    "location": "Hyundai Gallery"
  },
  {
    "imgSrc": "/assets/images/recent-exhibition-thumbnail.jpg",
    "title": "‘SWEET’ 진 영",
    "state": "전시 중",
    "genre": "Drawing",
    "city": "부산",
    "creator": {
      "name": "희재",
      "iconSrc": "https://graph.facebook.com/781692498598459/picture"
    },
    "schedule": "Nov 7-Dec 10, 2016",
    "location": "Hyundai Gallery"
  },
  {
    "imgSrc": "/assets/images/recent-exhibition-thumbnail.jpg",
    "title": "‘SWEET’ 진 영",
    "state": "전시 중",
    "genre": "Drawing",
    "city": "대구",
    "creator": {
      "name": "희재",
      "iconSrc": "https://graph.facebook.com/781692498598459/picture"
    },
    "schedule": "Nov 7-Dec 10, 2016",
    "location": "Hyundai Gallery"
  },
  {
    "imgSrc": "/assets/images/recent-exhibition-thumbnail.jpg",
    "title": "‘SWEET’ 진 영",
    "state": "전시 예정",
    "genre": "Mixed media",
    "city": "인천",
    "creator": {
      "name": "희재",
      "iconSrc": "https://graph.facebook.com/781692498598459/picture"
    },
    "schedule": "Nov 7-Dec 10, 2016",
    "location": "Hyundai Gallery"
  },
  {
    "imgSrc": "/assets/images/recent-exhibition-thumbnail.jpg",
    "title": "‘SWEET’ 진 영",
    "state": "전시 예정",
    "genre": "Sculpture",
    "city": "광주",
    "creator": {
      "name": "희재",
      "iconSrc": "https://graph.facebook.com/781692498598459/picture"
    },
    "schedule": "Nov 7-Dec 10, 2016",
    "location": "Hyundai Gallery"
  },
  {
    "imgSrc": "/assets/images/recent-exhibition-thumbnail.jpg",
    "title": "‘SWEET’ 진 영",
    "state": "전시 예정",
    "genre": "Photography",
    "city": "대전",
    "creator": {
      "name": "희재",
      "iconSrc": "https://graph.facebook.com/781692498598459/picture"
    },
    "schedule": "Nov 7-Dec 10, 2016",
    "location": "Hyundai Gallery"
  },
  {
    "imgSrc": "/assets/images/recent-exhibition-thumbnail.jpg",
    "title": "‘SWEET’ 진 영",
    "state": "전시 예정",
    "genre": "Video",
    "city": "울산",
    "creator": {
      "name": "희재",
      "iconSrc": "https://graph.facebook.com/781692498598459/picture"
    },
    "schedule": "Nov 7-Dec 10, 2016",
    "location": "Hyundai Gallery"
  },
  {
    "imgSrc": "/assets/images/recent-exhibition-thumbnail.jpg",
    "title": "‘SWEET’ 진 영",
    "state": "전시 예정",
    "genre": "Animation",
    "city": "세종",
    "creator": {
      "name": "희재",
      "iconSrc": "https://graph.facebook.com/781692498598459/picture"
    },
    "schedule": "Nov 7-Dec 10, 2016",
    "location": "Hyundai Gallery"
  },
  {
    "imgSrc": "/assets/images/recent-exhibition-thumbnail.jpg",
    "title": "‘SWEET’ 진 영",
    "state": "지난 전시",
    "genre": "Installation",
    "city": "경기",
    "creator": {
      "name": "희재",
      "iconSrc": "https://graph.facebook.com/781692498598459/picture"
    },
    "schedule": "Nov 7-Dec 10, 2016",
    "location": "Hyundai Gallery"
  },
  {
    "imgSrc": "/assets/images/recent-exhibition-thumbnail.jpg",
    "title": "‘SWEET’ 진 영",
    "state": "지난 전시",
    "genre": "Ceramic",
    "city": "강원",
    "creator": {
      "name": "희재",
      "iconSrc": "https://graph.facebook.com/781692498598459/picture"
    },
    "schedule": "Nov 7-Dec 10, 2016",
    "location": "Hyundai Gallery"
  },
  {
    "imgSrc": "/assets/images/recent-exhibition-thumbnail.jpg",
    "title": "‘SWEET’ 진 영",
    "state": "지난 전시",
    "genre": "Fiber art",
    "city": "충북",
    "creator": {
      "name": "희재",
      "iconSrc": "https://graph.facebook.com/781692498598459/picture"
    },
    "schedule": "Nov 7-Dec 10, 2016",
    "location": "Hyundai Gallery"
  },
  {
    "imgSrc": "/assets/images/recent-exhibition-thumbnail.jpg",
    "title": "‘SWEET’ 진 영",
    "state": "지난 전시",
    "genre": "Embroidery",
    "city": "충남",
    "creator": {
      "name": "희재",
      "iconSrc": "https://graph.facebook.com/781692498598459/picture"
    },
    "schedule": "Nov 7-Dec 10, 2016",
    "location": "Hyundai Gallery"
  },
  {
    "imgSrc": "/assets/images/recent-exhibition-thumbnail.jpg",
    "title": "‘SWEET’ 진 영",
    "state": "지난 전시",
    "genre": "Painting",
    "city": "전북",
    "creator": {
      "name": "희재",
      "iconSrc": "https://graph.facebook.com/781692498598459/picture"
    },
    "schedule": "Nov 7-Dec 10, 2016",
    "location": "Hyundai Gallery"
  },
  {
    "imgSrc": "/assets/images/recent-exhibition-thumbnail.jpg",
    "title": "‘SWEET’ 진 영",
    "state": "지난 전시",
    "genre": "Sculpture",
    "city": "전남",
    "creator": {
      "name": "희재",
      "iconSrc": "https://graph.facebook.com/781692498598459/picture"
    },
    "schedule": "Nov 7-Dec 10, 2016",
    "location": "Hyundai Gallery"
  }
]
